header: 
  seq: 6306
  stamp: 
    secs: 0
    nsecs:         0
  frame_id: ''
hands: 
  - 
    header: 
      seq: 0
      stamp: 
        secs: 1561406119
        nsecs: 336012111
      frame_id: "hand11"
    id: 11
    time_visible: 0.0
    pose: 
      position: 
        x: -89.2355728149
        y: 157.624679565
        z: 94.6505432129
      orientation: 
        x: 0.949161845611
        y: -0.257227926228
        z: -0.158551090896
        w: 0.088244752711
    velocity: 
      x: 1.19209289551e-07
      y: 1.19209289551e-07
      z: 1.19209289551e-07
    sphere_radius: 48.9124717712
    sphere_center: 
      x: -103.304420471
      y: 166.67791748
      z: 61.1727828979
    stabilized_pose: 
      position: 
        x: -89.2355728149
        y: 157.624679565
        z: 94.6505432129
      orientation: 
        x: 0.949161845611
        y: -0.257227926228
        z: -0.158551090896
        w: 0.088244752711
    fingers: 
      - 
        header: 
          seq: 0
          stamp: 
            secs: 1561406119
            nsecs: 336012111
          frame_id: "finger110"
        hand_id: 11
        id: 110
        time_visible: 0.0
        tip_position: 
          x: -156.515274048
          y: 164.806518555
          z: 115.043495178
        tip_velocity: 
          x: 0.0
          y: 0.0
          z: 0.0
        pointing_direction: 
          x: -0.930944979191
          y: 0.113338775933
          z: -0.347125053406
        stabilized_tip_position: 
          x: 0.0
          y: 0.0
          z: 0.0
      - 
        header: 
          seq: 0
          stamp: 
            secs: 1561406119
            nsecs: 336012111
          frame_id: "finger111"
        hand_id: 11
        id: 111
        time_visible: 0.0
        tip_position: 
          x: -158.567749023
          y: 185.751220703
          z: 40.4539909363
        tip_velocity: 
          x: 0.0
          y: 0.0
          z: 0.0
        pointing_direction: 
          x: -0.60590749979
          y: 0.338509500027
          z: -0.719921827316
        stabilized_tip_position: 
          x: 0.0
          y: 0.0
          z: 0.0
      - 
        header: 
          seq: 0
          stamp: 
            secs: 1561406119
            nsecs: 336012111
          frame_id: "finger112"
        hand_id: 11
        id: 112
        time_visible: 0.0
        tip_position: 
          x: -137.892837524
          y: 185.930389404
          z: 16.1561756134
        tip_velocity: 
          x: 0.0
          y: 0.0
          z: 0.0
        pointing_direction: 
          x: -0.454117417336
          y: 0.361200511456
          z: -0.814439415932
        stabilized_tip_position: 
          x: 0.0
          y: 0.0
          z: 0.0
      - 
        header: 
          seq: 0
          stamp: 
            secs: 1561406119
            nsecs: 336012111
          frame_id: "finger113"
        hand_id: 11
        id: 113
        time_visible: 0.0
        tip_position: 
          x: -115.111335754
          y: 182.141693115
          z: 12.3703126907
        tip_velocity: 
          x: 0.0
          y: 0.0
          z: 0.0
        pointing_direction: 
          x: -0.40539136529
          y: 0.396219879389
          z: -0.823812842369
        stabilized_tip_position: 
          x: 0.0
          y: 0.0
          z: 0.0
      - 
        header: 
          seq: 0
          stamp: 
            secs: 1561406119
            nsecs: 336012111
          frame_id: "finger114"
        hand_id: 11
        id: 114
        time_visible: 0.0
        tip_position: 
          x: -73.2179870605
          y: 167.535766602
          z: 14.4524364471
        tip_velocity: 
          x: 0.0
          y: 0.0
          z: 0.0
        pointing_direction: 
          x: -0.0949592217803
          y: 0.244896769524
          z: -0.964887738228
        stabilized_tip_position: 
          x: 0.0
          y: 0.0
          z: 0.0
---
header: 
  seq: 6307
  stamp: 
    secs: 0
    nsecs:         0
  frame_id: ''
hands: 
  - 
    header: 
      seq: 0
      stamp: 
        secs: 1561406119
        nsecs: 341006379
      frame_id: "hand11"
    id: 11
    time_visible: 0.00839699991047
    pose: 
      position: 
        x: -84.8242111206
        y: 158.713150024
        z: 93.2135925293
      orientation: 
        x: 0.956028033075
        y: -0.24020359929
        z: -0.140131194638
        w: 0.0931443994699
    velocity: 
      x: 525.350097656
      y: 129.626586914
      z: -171.127075195
    sphere_radius: 49.0538787842
    sphere_center: 
      x: -97.5722351074
      y: 172.016540527
      z: 60.9324684143
    stabilized_pose: 
      position: 
        x: -88.884185791
        y: 157.711380005
        z: 94.5360870361
      orientation: 
        x: 0.956028033075
        y: -0.24020359929
        z: -0.140131194638
        w: 0.0931443994699
    fingers: 
      - 
        header: 
          seq: 0
          stamp: 
            secs: 1561406119
            nsecs: 341006379
          frame_id: "finger110"
        hand_id: 11
        id: 110
        time_visible: 0.00839699991047
        tip_position: 
          x: -152.858505249
          y: 166.177871704
          z: 110.683944702
        tip_velocity: 
          x: 0.0
          y: 0.0
          z: 0.0
        pointing_direction: 
          x: -0.916480779648
          y: 0.100219033659
          z: -0.387323051691
        stabilized_tip_position: 
          x: 0.0
          y: 0.0
          z: 0.0
      - 
        header: 
          seq: 0
          stamp: 
            secs: 1561406119
            nsecs: 341006379
          frame_id: "finger111"
        hand_id: 11
        id: 111
        time_visible: 0.00839699991047
        tip_position: 
          x: -152.000061035
          y: 185.19934082
          z: 35.5844535828
        tip_velocity: 
          x: 0.0
          y: 0.0
          z: 0.0
        pointing_direction: 
          x: -0.577430963516
          y: 0.317588955164
          z: -0.752137422562
        stabilized_tip_position: 
          x: 0.0
          y: 0.0
          z: 0.0
      - 
        header: 
          seq: 0
          stamp: 
            secs: 1561406119
            nsecs: 341006379
          frame_id: "finger112"
        hand_id: 11
        id: 112
        time_visible: 0.00839699991047
        tip_position: 
          x: -130.370529175
          y: 185.073257446
          z: 12.2403554916
        tip_velocity: 
          x: 0.0
          y: 0.0
          z: 0.0
        pointing_direction: 
          x: -0.421796381474
          y: 0.344402641058
          z: -0.838733971119
        stabilized_tip_position: 
          x: 0.0
          y: 0.0
          z: 0.0
      - 
        header: 
          seq: 0
          stamp: 
            secs: 1561406119
            nsecs: 341006379
          frame_id: "finger113"
        hand_id: 11
        id: 113
        time_visible: 0.00839699991047
        tip_position: 
          x: -107.422599792
          y: 180.961990356
          z: 9.33027935028
        tip_velocity: 
          x: 0.0
          y: 0.0
          z: 0.0
        pointing_direction: 
          x: -0.372319638729
          y: 0.372619867325
          z: -0.850019156933
        stabilized_tip_position: 
          x: 0.0
          y: 0.0
          z: 0.0
      - 
        header: 
          seq: 0
          stamp: 
            secs: 1561406119
            nsecs: 341006379
          frame_id: "finger114"
        hand_id: 11
        id: 114
        time_visible: 0.00839699991047
        tip_position: 
          x: -66.3756790161
          y: 166.512207031
          z: 13.536482811
        tip_velocity: 
          x: 0.0
          y: 0.0
          z: 0.0
        pointing_direction: 
          x: -0.0755417123437
          y: 0.218296438456
          z: -0.972954332829
        stabilized_tip_position: 
          x: 0.0
          y: 0.0
          z: 0.0
---
header: 
  seq: 6308
  stamp: 
    secs: 0
    nsecs:         0
  frame_id: ''
hands: 
  - 
    header: 
      seq: 0
      stamp: 
        secs: 1561406119
        nsecs: 346056837
      frame_id: "hand11"
    id: 11
    time_visible: 0.0171360000968
    pose: 
      position: 
        x: -78.1757354736
        y: 159.093185425
        z: 89.5498123169
      orientation: 
        x: 0.962504183393
        y: -0.216370426593
        z: -0.131170460075
        w: 0.0977949173036
    velocity: 
      x: 588.398071289
      y: 106.558639526
      z: -237.572494507
    sphere_radius: 49.2489852905
    sphere_center: 
      x: -89.3669662476
      y: 174.550582886
      z: 57.5093040466
    stabilized_pose: 
      position: 
        x: -86.7847213745
        y: 157.982284546
        z: 93.5584945679
      orientation: 
        x: 0.962504183393
        y: -0.216370426593
        z: -0.131170460075
        w: 0.0977949173036
    fingers: 
      - 
        header: 
          seq: 0
          stamp: 
            secs: 1561406119
            nsecs: 346056837
          frame_id: "finger110"
        hand_id: 11
        id: 110
        time_visible: 0.0171360000968
        tip_position: 
          x: -146.896148682
          y: 166.777542114
          z: 103.307304382
        tip_velocity: 
          x: 0.0
          y: 0.0
          z: 0.0
        pointing_direction: 
          x: -0.893386363983
          y: 0.0976176932454
          z: -0.438556313515
        stabilized_tip_position: 
          x: 0.0
          y: 0.0
          z: 0.0
      - 
        header: 
          seq: 0
          stamp: 
            secs: 1561406119
            nsecs: 346056837
          frame_id: "finger111"
        hand_id: 11
        id: 111
        time_visible: 0.0171360000968
        tip_position: 
          x: -142.266830444
          y: 185.190200806
          z: 28.3446865082
        tip_velocity: 
          x: 0.0
          y: 0.0
          z: 0.0
        pointing_direction: 
          x: -0.537607729435
          y: 0.311303496361
          z: -0.783624947071
        stabilized_tip_position: 
          x: 0.0
          y: 0.0
          z: 0.0
      - 
        header: 
          seq: 0
          stamp: 
            secs: 1561406119
            nsecs: 346056837
          frame_id: "finger112"
        hand_id: 11
        id: 112
        time_visible: 0.0171360000968
        tip_position: 
          x: -119.509338379
          y: 184.934616089
          z: 6.19147157669
        tip_velocity: 
          x: 0.0
          y: 0.0
          z: 0.0
        pointing_direction: 
          x: -0.378210633993
          y: 0.339836239815
          z: -0.861085414886
        stabilized_tip_position: 
          x: 0.0
          y: 0.0
          z: 0.0
      - 
        header: 
          seq: 0
          stamp: 
            secs: 1561406119
            nsecs: 346056837
          frame_id: "finger113"
        hand_id: 11
        id: 113
        time_visible: 0.0171360000968
        tip_position: 
          x: -96.4050216675
          y: 180.652786255
          z: 4.42903423309
        tip_velocity: 
          x: 0.0
          y: 0.0
          z: 0.0
        pointing_direction: 
          x: -0.327062100172
          y: 0.366046637297
          z: -0.871229171753
        stabilized_tip_position: 
          x: 0.0
          y: 0.0
          z: 0.0
      - 
        header: 
          seq: 0
          stamp: 
            secs: 1561406119
            nsecs: 346056837
          frame_id: "finger114"
        hand_id: 11
        id: 114
        time_visible: 0.0171360000968
        tip_position: 
          x: -56.4908599854
          y: 166.094589233
          z: 10.8842487335
        tip_velocity: 
          x: 0.0
          y: 0.0
          z: 0.0
        pointing_direction: 
          x: -0.0450595133007
          y: 0.209465056658
          z: -0.976777374744
        stabilized_tip_position: 
          x: 0.0
          y: 0.0
          z: 0.0
---
header: 
  seq: 6309
  stamp: 
    secs: 0
    nsecs:         0
  frame_id: ''
hands: 
  - 
    header: 
      seq: 0
      stamp: 
        secs: 1561406119
        nsecs: 351010051
      frame_id: "hand11"
    id: 11
    time_visible: 0.0171360000968
    pose: 
      position: 
        x: -78.1757354736
        y: 159.093185425
        z: 89.5498123169
      orientation: 
        x: 0.962504183393
        y: -0.216370426593
        z: -0.131170460075
        w: 0.0977949173036
    velocity: 
      x: 588.398071289
      y: 106.558639526
      z: -237.572494507
    sphere_radius: 49.2489852905
    sphere_center: 
      x: -89.3669662476
      y: 174.550582886
      z: 57.5093040466
    stabilized_pose: 
      position: 
        x: -86.7847213745
        y: 157.982284546
        z: 93.5584945679
      orientation: 
        x: 0.962504183393
        y: -0.216370426593
        z: -0.131170460075
        w: 0.0977949173036
    fingers: 
      - 
        header: 
          seq: 0
          stamp: 
            secs: 1561406119
            nsecs: 351010051
          frame_id: "finger110"
        hand_id: 11
        id: 110
        time_visible: 0.0171360000968
        tip_position: 
          x: -146.896148682
          y: 166.777542114
          z: 103.307304382
        tip_velocity: 
          x: 0.0
          y: 0.0
          z: 0.0
        pointing_direction: 
          x: -0.893386363983
          y: 0.0976176932454
          z: -0.438556313515
        stabilized_tip_position: 
          x: 0.0
          y: 0.0
          z: 0.0
      - 
        header: 
          seq: 0
          stamp: 
            secs: 1561406119
            nsecs: 351010051
          frame_id: "finger111"
        hand_id: 11
        id: 111
        time_visible: 0.0171360000968
        tip_position: 
          x: -142.266830444
          y: 185.190200806
          z: 28.3446865082
        tip_velocity: 
          x: 0.0
          y: 0.0
          z: 0.0
        pointing_direction: 
          x: -0.537607729435
          y: 0.311303496361
          z: -0.783624947071
        stabilized_tip_position: 
          x: 0.0
          y: 0.0
          z: 0.0
      - 
        header: 
          seq: 0
          stamp: 
            secs: 1561406119
            nsecs: 351010051
          frame_id: "finger112"
        hand_id: 11
        id: 112
        time_visible: 0.0171360000968
        tip_position: 
          x: -119.509338379
          y: 184.934616089
          z: 6.19147157669
        tip_velocity: 
          x: 0.0
          y: 0.0
          z: 0.0
        pointing_direction: 
          x: -0.378210633993
          y: 0.339836239815
          z: -0.861085414886
        stabilized_tip_position: 
          x: 0.0
          y: 0.0
          z: 0.0
      - 
        header: 
          seq: 0
          stamp: 
            secs: 1561406119
            nsecs: 351010051
          frame_id: "finger113"
        hand_id: 11
        id: 113
        time_visible: 0.0171360000968
        tip_position: 
          x: -96.4050216675
          y: 180.652786255
          z: 4.42903423309
        tip_velocity: 
          x: 0.0
          y: 0.0
          z: 0.0
        pointing_direction: 
          x: -0.327062100172
          y: 0.366046637297
          z: -0.871229171753
        stabilized_tip_position: 
          x: 0.0
          y: 0.0
          z: 0.0
      - 
        header: 
          seq: 0
          stamp: 
            secs: 1561406119
            nsecs: 351010051
          frame_id: "finger114"
        hand_id: 11
        id: 114
        time_visible: 0.0171360000968
        tip_position: 
          x: -56.4908599854
          y: 166.094589233
          z: 10.8842487335
        tip_velocity: 
          x: 0.0
          y: 0.0
          z: 0.0
        pointing_direction: 
          x: -0.0450595133007
          y: 0.209465056658
          z: -0.976777374744
        stabilized_tip_position: 
          x: 0.0
          y: 0.0
          z: 0.0
---
header: 
  seq: 6310
  stamp: 
    secs: 0
    nsecs:         0
  frame_id: ''
hands: 
  - 
    header: 
      seq: 0
      stamp: 
        secs: 1561406119
        nsecs: 355981660
      frame_id: "hand11"
    id: 11
    time_visible: 0.0258329994977
    pose: 
      position: 
        x: -70.1778259277
        y: 160.121383667
        z: 83.418182373
      orientation: 
        x: 0.968181672903
        y: -0.197009336169
        z: -0.119957973421
        w: 0.097065206589
    velocity: 
      x: 676.734130859
      y: 109.669815063
      z: -362.242736816
    sphere_radius: 50.3050003052
    sphere_center: 
      x: -80.1994094849
      y: 180.653549194
      z: 52.7049331665
    stabilized_pose: 
      position: 
        x: -81.1422958374
        y: 158.709075928
        z: 90.1131744385
      orientation: 
        x: 0.968181672903
        y: -0.197009336169
        z: -0.119957973421
        w: 0.097065206589
    fingers: 
      - 
        header: 
          seq: 0
          stamp: 
            secs: 1561406119
            nsecs: 355981660
          frame_id: "finger110"
        hand_id: 11
        id: 110
        time_visible: 0.0258329994977
        tip_position: 
          x: -139.307601929
          y: 167.061737061
          z: 93.6889953613
        tip_velocity: 
          x: 0.0
          y: 0.0
          z: 0.0
        pointing_direction: 
          x: -0.869270443916
          y: 0.0826078206301
          z: -0.487385720015
        stabilized_tip_position: 
          x: 0.0
          y: 0.0
          z: 0.0
      - 
        header: 
          seq: 0
          stamp: 
            secs: 1561406119
            nsecs: 355981660
          frame_id: "finger111"
        hand_id: 11
        id: 111
        time_visible: 0.0258329994977
        tip_position: 
          x: -131.668289185
          y: 185.086196899
          z: 19.1545791626
        tip_velocity: 
          x: 0.0
          y: 0.0
          z: 0.0
        pointing_direction: 
          x: -0.504494249821
          y: 0.297821879387
          z: -0.810424387455
        stabilized_tip_position: 
          x: 0.0
          y: 0.0
          z: 0.0
      - 
        header: 
          seq: 0
          stamp: 
            secs: 1561406119
            nsecs: 355981660
          frame_id: "finger112"
        hand_id: 11
        id: 112
        time_visible: 0.0258329994977
        tip_position: 
          x: -107.975616455
          y: 185.204391479
          z: -1.80395901203
        tip_velocity: 
          x: 0.0
          y: 0.0
          z: 0.0
        pointing_direction: 
          x: -0.342510730028
          y: 0.335378587246
          z: -0.877614736557
        stabilized_tip_position: 
          x: 0.0
          y: 0.0
          z: 0.0
      - 
        header: 
          seq: 0
          stamp: 
            secs: 1561406119
            nsecs: 355981660
          frame_id: "finger113"
        hand_id: 11
        id: 113
        time_visible: 0.0258329994977
        tip_position: 
          x: -84.7140884399
          y: 180.842651367
          z: -2.61770534515
        tip_velocity: 
          x: 0.0
          y: 0.0
          z: 0.0
        pointing_direction: 
          x: -0.289755821228
          y: 0.356678336859
          z: -0.888156592846
        stabilized_tip_position: 
          x: 0.0
          y: 0.0
          z: 0.0
      - 
        header: 
          seq: 0
          stamp: 
            secs: 1561406119
            nsecs: 355981660
          frame_id: "finger114"
        hand_id: 11
        id: 114
        time_visible: 0.0258329994977
        tip_position: 
          x: -46.088218689
          y: 166.604248047
          z: 5.77311086655
        tip_velocity: 
          x: 0.0
          y: 0.0
          z: 0.0
        pointing_direction: 
          x: -0.0269543081522
          y: 0.201519161463
          z: -0.979113638401
        stabilized_tip_position: 
          x: 0.0
          y: 0.0
          z: 0.0
---
header: 
  seq: 6311
  stamp: 
    secs: 0
    nsecs:         0
  frame_id: ''
hands: 
  - 
    header: 
      seq: 0
      stamp: 
        secs: 1561406119
        nsecs: 361025238
      frame_id: "hand11"
    id: 11
    time_visible: 0.0258329994977
    pose: 
      position: 
        x: -70.1778259277
        y: 160.121383667
        z: 83.418182373
      orientation: 
        x: 0.968181672903
        y: -0.197009336169
        z: -0.119957973421
        w: 0.097065206589
    velocity: 
      x: 676.734130859
      y: 109.669815063
      z: -362.242736816
    sphere_radius: 50.3050003052
    sphere_center: 
      x: -80.1994094849
      y: 180.653549194
      z: 52.7049331665
    stabilized_pose: 
      position: 
        x: -81.1422958374
        y: 158.709075928
        z: 90.1131744385
      orientation: 
        x: 0.968181672903
        y: -0.197009336169
        z: -0.119957973421
        w: 0.097065206589
    fingers: 
      - 
        header: 
          seq: 0
          stamp: 
            secs: 1561406119
            nsecs: 361025238
          frame_id: "finger110"
        hand_id: 11
        id: 110
        time_visible: 0.0258329994977
        tip_position: 
          x: -139.307601929
          y: 167.061737061
          z: 93.6889953613
        tip_velocity: 
          x: 0.0
          y: 0.0
          z: 0.0
        pointing_direction: 
          x: -0.869270443916
          y: 0.0826078206301
          z: -0.487385720015
        stabilized_tip_position: 
          x: 0.0
          y: 0.0
          z: 0.0
      - 
        header: 
          seq: 0
          stamp: 
            secs: 1561406119
            nsecs: 361025238
          frame_id: "finger111"
        hand_id: 11
        id: 111
        time_visible: 0.0258329994977
        tip_position: 
          x: -131.668289185
          y: 185.086196899
          z: 19.1545791626
        tip_velocity: 
          x: 0.0
          y: 0.0
          z: 0.0
        pointing_direction: 
          x: -0.504494249821
          y: 0.297821879387
          z: -0.810424387455
        stabilized_tip_position: 
          x: 0.0
          y: 0.0
          z: 0.0
      - 
        header: 
          seq: 0
          stamp: 
            secs: 1561406119
            nsecs: 361025238
          frame_id: "finger112"
        hand_id: 11
        id: 112
        time_visible: 0.0258329994977
        tip_position: 
          x: -107.975616455
          y: 185.204391479
          z: -1.80395901203
        tip_velocity: 
          x: 0.0
          y: 0.0
          z: 0.0
        pointing_direction: 
          x: -0.342510730028
          y: 0.335378587246
          z: -0.877614736557
        stabilized_tip_position: 
          x: 0.0
          y: 0.0
          z: 0.0
      - 
        header: 
          seq: 0
          stamp: 
            secs: 1561406119
            nsecs: 361025238
          frame_id: "finger113"
        hand_id: 11
        id: 113
        time_visible: 0.0258329994977
        tip_position: 
          x: -84.7140884399
          y: 180.842651367
          z: -2.61770534515
        tip_velocity: 
          x: 0.0
          y: 0.0
          z: 0.0
        pointing_direction: 
          x: -0.289755821228
          y: 0.356678336859
          z: -0.888156592846
        stabilized_tip_position: 
          x: 0.0
          y: 0.0
          z: 0.0
      - 
        header: 
          seq: 0
          stamp: 
            secs: 1561406119
            nsecs: 361025238
          frame_id: "finger114"
        hand_id: 11
        id: 114
        time_visible: 0.0258329994977
        tip_position: 
          x: -46.088218689
          y: 166.604248047
          z: 5.77311086655
        tip_velocity: 
          x: 0.0
          y: 0.0
          z: 0.0
        pointing_direction: 
          x: -0.0269543081522
          y: 0.201519161463
          z: -0.979113638401
        stabilized_tip_position: 
          x: 0.0
          y: 0.0
          z: 0.0
---
header: 
  seq: 6312
  stamp: 
    secs: 0
    nsecs:         0
  frame_id: ''
hands: 
  - 
    header: 
      seq: 0
      stamp: 
        secs: 1561406119
        nsecs: 366038859
      frame_id: "hand11"
    id: 11
    time_visible: 0.0343969985843
    pose: 
      position: 
        x: -62.1985206604
        y: 160.265213013
        z: 77.0602264404
      orientation: 
        x: 0.973164844266
        y: -0.174880546457
        z: -0.114482233935
        w: 0.0962330424985
    velocity: 
      x: 743.85144043
      y: 85.2239074707
      z: -462.306365967
    sphere_radius: 51.9118041992
    sphere_center: 
      x: -71.0101776123
      y: 185.976287842
      z: 47.7229919434
    stabilized_pose: 
      position: 
        x: -73.9951400757
        y: 159.296173096
        z: 85.1885299683
      orientation: 
        x: 0.973164844266
        y: -0.174880546457
        z: -0.114482233935
        w: 0.0962330424985
    fingers: 
      - 
        header: 
          seq: 0
          stamp: 
            secs: 1561406119
            nsecs: 366038859
          frame_id: "finger110"
        hand_id: 11
        id: 110
        time_visible: 0.0343969985843
        tip_position: 
          x: -131.459060669
          y: 166.581680298
          z: 83.5398788452
        tip_velocity: 
          x: 0.0
          y: 0.0
          z: 0.0
        pointing_direction: 
          x: -0.839035272598
          y: 0.075586758554
          z: -0.538800954819
        stabilized_tip_position: 
          x: 0.0
          y: 0.0
          z: 0.0
      - 
        header: 
          seq: 0
          stamp: 
            secs: 1561406119
            nsecs: 366038859
          frame_id: "finger111"
        hand_id: 11
        id: 111
        time_visible: 0.0343969985843
        tip_position: 
          x: -120.651542664
          y: 184.8256073
          z: 9.87742233276
        tip_velocity: 
          x: 0.0
          y: 0.0
          z: 0.0
        pointing_direction: 
          x: -0.46666392684
          y: 0.291964590549
          z: -0.834854125977
        stabilized_tip_position: 
          x: 0.0
          y: 0.0
          z: 0.0
      - 
        header: 
          seq: 0
          stamp: 
            secs: 1561406119
            nsecs: 366038859
          frame_id: "finger112"
        hand_id: 11
        id: 112
        time_visible: 0.0343969985843
        tip_position: 
          x: -96.0376586914
          y: 185.609832764
          z: -9.70240497589
        tip_velocity: 
          x: 0.0
          y: 0.0
          z: 0.0
        pointing_direction: 
          x: -0.302691787481
          y: 0.341892063618
          z: -0.889655828476
        stabilized_tip_position: 
          x: 0.0
          y: 0.0
          z: 0.0
      - 
        header: 
          seq: 0
          stamp: 
            secs: 1561406119
            nsecs: 366038859
          frame_id: "finger113"
        hand_id: 11
        id: 113
        time_visible: 0.0343969985843
        tip_position: 
          x: -72.6446304321
          y: 181.032867432
          z: -9.55545139313
        tip_velocity: 
          x: 0.0
          y: 0.0
          z: 0.0
        pointing_direction: 
          x: -0.247706845403
          y: 0.356850922108
          z: -0.900721251965
        stabilized_tip_position: 
          x: 0.0
          y: 0.0
          z: 0.0
      - 
        header: 
          seq: 0
          stamp: 
            secs: 1561406119
            nsecs: 366038859
          frame_id: "finger114"
        hand_id: 11
        id: 114
        time_visible: 0.0343969985843
        tip_position: 
          x: -35.3149337769
          y: 166.899368286
          z: 0.661140024662
        tip_velocity: 
          x: 0.0
          y: 0.0
          z: 0.0
        pointing_direction: 
          x: 0.000183389653102
          y: 0.202509477735
          z: -0.979280292988
        stabilized_tip_position: 
          x: 0.0
          y: 0.0
          z: 0.0
---
header: 
  seq: 6313
  stamp: 
    secs: 0
    nsecs:         0
  frame_id: ''
hands: 
  - 
    header: 
      seq: 0
      stamp: 
        secs: 1561406119
        nsecs: 371017936
      frame_id: "hand11"
    id: 11
    time_visible: 0.0343969985843
    pose: 
      position: 
        x: -62.1985206604
        y: 160.265213013
        z: 77.0602264404
      orientation: 
        x: 0.973164844266
        y: -0.174880546457
        z: -0.114482233935
        w: 0.0962330424985
    velocity: 
      x: 743.85144043
      y: 85.2239074707
      z: -462.306365967
    sphere_radius: 51.9118041992
    sphere_center: 
      x: -71.0101776123
      y: 185.976287842
      z: 47.7229919434
    stabilized_pose: 
      position: 
        x: -73.9951400757
        y: 159.296173096
        z: 85.1885299683
      orientation: 
        x: 0.973164844266
        y: -0.174880546457
        z: -0.114482233935
        w: 0.0962330424985
    fingers: 
      - 
        header: 
          seq: 0
          stamp: 
            secs: 1561406119
            nsecs: 371017936
          frame_id: "finger110"
        hand_id: 11
        id: 110
        time_visible: 0.0343969985843
        tip_position: 
          x: -131.459060669
          y: 166.581680298
          z: 83.5398788452
        tip_velocity: 
          x: 0.0
          y: 0.0
          z: 0.0
        pointing_direction: 
          x: -0.839035272598
          y: 0.075586758554
          z: -0.538800954819
        stabilized_tip_position: 
          x: 0.0
          y: 0.0
          z: 0.0
      - 
        header: 
          seq: 0
          stamp: 
            secs: 1561406119
            nsecs: 371017936
          frame_id: "finger111"
        hand_id: 11
        id: 111
        time_visible: 0.0343969985843
        tip_position: 
          x: -120.651542664
          y: 184.8256073
          z: 9.87742233276
        tip_velocity: 
          x: 0.0
          y: 0.0
          z: 0.0
        pointing_direction: 
          x: -0.46666392684
          y: 0.291964590549
          z: -0.834854125977
        stabilized_tip_position: 
          x: 0.0
          y: 0.0
          z: 0.0
      - 
        header: 
          seq: 0
          stamp: 
            secs: 1561406119
            nsecs: 371017936
          frame_id: "finger112"
        hand_id: 11
        id: 112
        time_visible: 0.0343969985843
        tip_position: 
          x: -96.0376586914
          y: 185.609832764
          z: -9.70240497589
        tip_velocity: 
          x: 0.0
          y: 0.0
          z: 0.0
        pointing_direction: 
          x: -0.302691787481
          y: 0.341892063618
          z: -0.889655828476
        stabilized_tip_position: 
          x: 0.0
          y: 0.0
          z: 0.0
      - 
        header: 
          seq: 0
          stamp: 
            secs: 1561406119
            nsecs: 371017936
          frame_id: "finger113"
        hand_id: 11
        id: 113
        time_visible: 0.0343969985843
        tip_position: 
          x: -72.6446304321
          y: 181.032867432
          z: -9.55545139313
        tip_velocity: 
          x: 0.0
          y: 0.0
          z: 0.0
        pointing_direction: 
          x: -0.247706845403
          y: 0.356850922108
          z: -0.900721251965
        stabilized_tip_position: 
          x: 0.0
          y: 0.0
          z: 0.0
      - 
        header: 
          seq: 0
          stamp: 
            secs: 1561406119
            nsecs: 371017936
          frame_id: "finger114"
        hand_id: 11
        id: 114
        time_visible: 0.0343969985843
        tip_position: 
          x: -35.3149337769
          y: 166.899368286
          z: 0.661140024662
        tip_velocity: 
          x: 0.0
          y: 0.0
          z: 0.0
        pointing_direction: 
          x: 0.000183389653102
          y: 0.202509477735
          z: -0.979280292988
        stabilized_tip_position: 
          x: 0.0
          y: 0.0
          z: 0.0
---
header: 
  seq: 6314
  stamp: 
    secs: 0
    nsecs:         0
  frame_id: ''
hands: 
  - 
    header: 
      seq: 0
      stamp: 
        secs: 1561406119
        nsecs: 376013212
      frame_id: "hand11"
    id: 11
    time_visible: 0.0431330017745
    pose: 
      position: 
        x: -54.611995697
        y: 159.739181519
        z: 70.6399917603
      orientation: 
        x: 0.978114442841
        y: -0.148250847339
        z: -0.112478918071
        w: 0.093071563644
    velocity: 
      x: 777.20111084
      y: 46.2873878479
      z: -535.289428711
    sphere_radius: 53.1423492432
    sphere_center: 
      x: -61.9566116333
      y: 188.870834351
      z: 42.1867637634
    stabilized_pose: 
      position: 
        x: -66.690536499
        y: 159.463119507
        z: 79.7058639526
      orientation: 
        x: 0.978114442841
        y: -0.148250847339
        z: -0.112478918071
        w: 0.093071563644
    fingers: 
      - 
        header: 
          seq: 0
          stamp: 
            secs: 1561406119
            nsecs: 376013212
          frame_id: "finger110"
        hand_id: 11
        id: 110
        time_visible: 0.0431330017745
        tip_position: 
          x: -123.675209045
          y: 165.229171753
          z: 72.5963897705
        tip_velocity: 
          x: 0.0
          y: 0.0
          z: 0.0
        pointing_direction: 
          x: -0.797382712364
          y: 0.0730383247137
          z: -0.599037706852
        stabilized_tip_position: 
          x: 0.0
          y: 0.0
          z: 0.0
      - 
        header: 
          seq: 0
          stamp: 
            secs: 1561406119
            nsecs: 376013212
          frame_id: "finger111"
        hand_id: 11
        id: 111
        time_visible: 0.0431330017745
        tip_position: 
          x: -109.289901733
          y: 184.456924438
          z: 0.410348415375
        tip_velocity: 
          x: 0.0
          y: 0.0
          z: 0.0
        pointing_direction: 
          x: -0.420089304447
          y: 0.294518083334
          z: -0.858361244202
        stabilized_tip_position: 
          x: 0.0
          y: 0.0
          z: 0.0
      - 
        header: 
          seq: 0
          stamp: 
            secs: 1561406119
            nsecs: 376013212
          frame_id: "finger112"
        hand_id: 11
        id: 112
        time_visible: 0.0431330017745
        tip_position: 
          x: -83.7023849487
          y: 185.934066772
          z: -17.56457901
        tip_velocity: 
          x: 0.0
          y: 0.0
          z: 0.0
        pointing_direction: 
          x: -0.255446434021
          y: 0.352860420942
          z: -0.900131464005
        stabilized_tip_position: 
          x: 0.0
          y: 0.0
          z: 0.0
      - 
        header: 
          seq: 0
          stamp: 
            secs: 1561406119
            nsecs: 376013212
          frame_id: "finger113"
        hand_id: 11
        id: 113
        time_visible: 0.0431330017745
        tip_position: 
          x: -60.2020759583
          y: 181.324020386
          z: -16.2239131927
        tip_velocity: 
          x: 0.0
          y: 0.0
          z: 0.0
        pointing_direction: 
          x: -0.197739049792
          y: 0.364740848541
          z: -0.909869968891
        stabilized_tip_position: 
          x: 0.0
          y: 0.0
          z: 0.0
      - 
        header: 
          seq: 0
          stamp: 
            secs: 1561406119
            nsecs: 376013212
          frame_id: "finger114"
        hand_id: 11
        id: 114
        time_visible: 0.0431330017745
        tip_position: 
          x: -24.1417064667
          y: 167.229034424
          z: -4.07677221298
        tip_velocity: 
          x: 0.0
          y: 0.0
          z: 0.0
        pointing_direction: 
          x: 0.0406436361372
          y: 0.21095430851
          z: -0.976650595665
        stabilized_tip_position: 
          x: 0.0
          y: 0.0
          z: 0.0
---
header: 
  seq: 6315
  stamp: 
    secs: 0
    nsecs:         0
  frame_id: ''
hands: 
  - 
    header: 
      seq: 0
      stamp: 
        secs: 1561406119
        nsecs: 381005488
      frame_id: "hand11"
    id: 11
    time_visible: 0.0517410002649
    pose: 
      position: 
        x: -47.0776557922
        y: 158.456710815
        z: 63.9748687744
      orientation: 
        x: 0.981431769788
        y: -0.124781255598
        z: -0.11383773956
        w: 0.0908971317189
    velocity: 
      x: 803.127868652
      y: -5.3365187645
      z: -598.47467041
    sphere_radius: 54.2497253418
    sphere_center: 
      x: -53.193157196
      y: 190.456848145
      z: 36.4645271301
    stabilized_pose: 
      position: 
        x: -59.6035881042
        y: 159.099472046
        z: 74.0215988159
      orientation: 
        x: 0.981431769788
        y: -0.124781255598
        z: -0.11383773956
        w: 0.0908971317189
    fingers: 
      - 
        header: 
          seq: 0
          stamp: 
            secs: 1561406119
            nsecs: 381005488
          frame_id: "finger110"
        hand_id: 11
        id: 110
        time_visible: 0.0517410002649
        tip_position: 
          x: -115.706642151
          y: 163.624893188
          z: 62.1147384644
        tip_velocity: 
          x: 0.0
          y: 0.0
          z: 0.0
        pointing_direction: 
          x: -0.758364737034
          y: 0.0789239630103
          z: -0.647034704685
        stabilized_tip_position: 
          x: 0.0
          y: 0.0
          z: 0.0
      - 
        header: 
          seq: 0
          stamp: 
            secs: 1561406119
            nsecs: 381005488
          frame_id: "finger111"
        hand_id: 11
        id: 111
        time_visible: 0.0517410002649
        tip_position: 
          x: -98.3277206421
          y: 183.762573242
          z: -8.5885925293
        tip_velocity: 
          x: 0.0
          y: 0.0
          z: 0.0
        pointing_direction: 
          x: -0.378539651632
          y: 0.301162600517
          z: -0.875219285488
        stabilized_tip_position: 
          x: 0.0
          y: 0.0
          z: 0.0
      - 
        header: 
          seq: 0
          stamp: 
            secs: 1561406119
            nsecs: 381005488
          frame_id: "finger112"
        hand_id: 11
        id: 112
        time_visible: 0.0517410002649
        tip_position: 
          x: -71.9921646118
          y: 185.859161377
          z: -25.122209549
        tip_velocity: 
          x: 0.0
          y: 0.0
          z: 0.0
        pointing_direction: 
          x: -0.213894605637
          y: 0.36713963747
          z: -0.905238986015
        stabilized_tip_position: 
          x: 0.0
          y: 0.0
          z: 0.0
      - 
        header: 
          seq: 0
          stamp: 
            secs: 1561406119
            nsecs: 381005488
          frame_id: "finger113"
        hand_id: 11
        id: 113
        time_visible: 0.0517410002649
        tip_position: 
          x: -48.4469566345
          y: 181.141021729
          z: -22.7754878998
        tip_velocity: 
          x: 0.0
          y: 0.0
          z: 0.0
        pointing_direction: 
          x: -0.153583675623
          y: 0.376294344664
          z: -0.913681924343
        stabilized_tip_position: 
          x: 0.0
          y: 0.0
          z: 0.0
      - 
        header: 
          seq: 0
          stamp: 
            secs: 1561406119
            nsecs: 381005488
          frame_id: "finger114"
        hand_id: 11
        id: 114
        time_visible: 0.0517410002649
        tip_position: 
          x: -13.5829744339
          y: 166.881835938
          z: -9.1289806366
        tip_velocity: 
          x: 0.0
          y: 0.0
          z: 0.0
        pointing_direction: 
          x: 0.076456964016
          y: 0.221952989697
          z: -0.972055137157
        stabilized_tip_position: 
          x: 0.0
          y: 0.0
          z: 0.0
---
header: 
  seq: 6316
  stamp: 
    secs: 0
    nsecs:         0
  frame_id: ''
hands: 
  - 
    header: 
      seq: 0
      stamp: 
        secs: 1561406119
        nsecs: 386005294
      frame_id: "hand11"
    id: 11
    time_visible: 0.0517410002649
    pose: 
      position: 
        x: -47.0776557922
        y: 158.456710815
        z: 63.9748687744
      orientation: 
        x: 0.981431769788
        y: -0.124781255598
        z: -0.11383773956
        w: 0.0908971317189
    velocity: 
      x: 803.127868652
      y: -5.3365187645
      z: -598.47467041
    sphere_radius: 54.2497253418
    sphere_center: 
      x: -53.193157196
      y: 190.456848145
      z: 36.4645271301
    stabilized_pose: 
      position: 
        x: -59.6035881042
        y: 159.099472046
        z: 74.0215988159
      orientation: 
        x: 0.981431769788
        y: -0.124781255598
        z: -0.11383773956
        w: 0.0908971317189
    fingers: 
      - 
        header: 
          seq: 0
          stamp: 
            secs: 1561406119
            nsecs: 386005294
          frame_id: "finger110"
        hand_id: 11
        id: 110
        time_visible: 0.0517410002649
        tip_position: 
          x: -115.706642151
          y: 163.624893188
          z: 62.1147384644
        tip_velocity: 
          x: 0.0
          y: 0.0
          z: 0.0
        pointing_direction: 
          x: -0.758364737034
          y: 0.0789239630103
          z: -0.647034704685
        stabilized_tip_position: 
          x: 0.0
          y: 0.0
          z: 0.0
      - 
        header: 
          seq: 0
          stamp: 
            secs: 1561406119
            nsecs: 386005294
          frame_id: "finger111"
        hand_id: 11
        id: 111
        time_visible: 0.0517410002649
        tip_position: 
          x: -98.3277206421
          y: 183.762573242
          z: -8.5885925293
        tip_velocity: 
          x: 0.0
          y: 0.0
          z: 0.0
        pointing_direction: 
          x: -0.378539651632
          y: 0.301162600517
          z: -0.875219285488
        stabilized_tip_position: 
          x: 0.0
          y: 0.0
          z: 0.0
      - 
        header: 
          seq: 0
          stamp: 
            secs: 1561406119
            nsecs: 386005294
          frame_id: "finger112"
        hand_id: 11
        id: 112
        time_visible: 0.0517410002649
        tip_position: 
          x: -71.9921646118
          y: 185.859161377
          z: -25.122209549
        tip_velocity: 
          x: 0.0
          y: 0.0
          z: 0.0
        pointing_direction: 
          x: -0.213894605637
          y: 0.36713963747
          z: -0.905238986015
        stabilized_tip_position: 
          x: 0.0
          y: 0.0
          z: 0.0
      - 
        header: 
          seq: 0
          stamp: 
            secs: 1561406119
            nsecs: 386005294
          frame_id: "finger113"
        hand_id: 11
        id: 113
        time_visible: 0.0517410002649
        tip_position: 
          x: -48.4469566345
          y: 181.141021729
          z: -22.7754878998
        tip_velocity: 
          x: 0.0
          y: 0.0
          z: 0.0
        pointing_direction: 
          x: -0.153583675623
          y: 0.376294344664
          z: -0.913681924343
        stabilized_tip_position: 
          x: 0.0
          y: 0.0
          z: 0.0
      - 
        header: 
          seq: 0
          stamp: 
            secs: 1561406119
            nsecs: 386005294
          frame_id: "finger114"
        hand_id: 11
        id: 114
        time_visible: 0.0517410002649
        tip_position: 
          x: -13.5829744339
          y: 166.881835938
          z: -9.1289806366
        tip_velocity: 
          x: 0.0
          y: 0.0
          z: 0.0
        pointing_direction: 
          x: 0.076456964016
          y: 0.221952989697
          z: -0.972055137157
        stabilized_tip_position: 
          x: 0.0
          y: 0.0
          z: 0.0
---
header: 
  seq: 6317
  stamp: 
    secs: 0
    nsecs:         0
  frame_id: ''
hands: 
  - 
    header: 
      seq: 0
      stamp: 
        secs: 1561406119
        nsecs: 391009862
      frame_id: "hand11"
    id: 11
    time_visible: 0.0604289993644
    pose: 
      position: 
        x: -39.8223648071
        y: 157.922409058
        z: 56.9483604431
      orientation: 
        x: 0.984793214104
        y: -0.105406244544
        z: -0.110150308031
        w: 0.0832992119216
    velocity: 
      x: 811.645507812
      y: -20.3019046783
      z: -654.508361816
    sphere_radius: 54.7404747009
    sphere_center: 
      x: -45.2926063538
      y: 191.029907227
      z: 29.7294979095
    stabilized_pose: 
      position: 
        x: -52.7140426636
        y: 158.68951416
        z: 68.0752105713
      orientation: 
        x: 0.984793214104
        y: -0.105406244544
        z: -0.110150308031
        w: 0.0832992119216
    fingers: 
      - 
        header: 
          seq: 0
          stamp: 
            secs: 1561406119
            nsecs: 391009862
          frame_id: "finger110"
        hand_id: 11
        id: 110
        time_visible: 0.0604289993644
        tip_position: 
          x: -108.050186157
          y: 162.02204895
          z: 51.7336196899
        tip_velocity: 
          x: 0.0
          y: 0.0
          z: 0.0
        pointing_direction: 
          x: -0.724086999893
          y: 0.0710447207093
          z: -0.686039805412
        stabilized_tip_position: 
          x: 0.0
          y: 0.0
          z: 0.0
      - 
        header: 
          seq: 0
          stamp: 
            secs: 1561406119
            nsecs: 391009862
          frame_id: "finger111"
        hand_id: 11
        id: 111
        time_visible: 0.0604289993644
        tip_position: 
          x: -88.1090011597
          y: 182.781585693
          z: -17.7644081116
        tip_velocity: 
          x: 0.0
          y: 0.0
          z: 0.0
        pointing_direction: 
          x: -0.342800825834
          y: 0.298703610897
          z: -0.890653550625
        stabilized_tip_position: 
          x: 0.0
          y: 0.0
          z: 0.0
      - 
        header: 
          seq: 0
          stamp: 
            secs: 1561406119
            nsecs: 391009862
          frame_id: "finger112"
        hand_id: 11
        id: 112
        time_visible: 0.0604289993644
        tip_position: 
          x: -61.2022590637
          y: 185.508041382
          z: -32.9993629456
        tip_velocity: 
          x: 0.0
          y: 0.0
          z: 0.0
        pointing_direction: 
          x: -0.179950937629
          y: 0.370566219091
          z: -0.911207079887
        stabilized_tip_position: 
          x: 0.0
          y: 0.0
          z: 0.0
      - 
        header: 
          seq: 0
          stamp: 
            secs: 1561406119
            nsecs: 391009862
          frame_id: "finger113"
        hand_id: 11
        id: 113
        time_visible: 0.0604289993644
        tip_position: 
          x: -37.6083335876
          y: 181.06098938
          z: -29.6589298248
        tip_velocity: 
          x: 0.0
          y: 0.0
          z: 0.0
        pointing_direction: 
          x: -0.117493659258
          y: 0.379771053791
          z: -0.91758877039
        stabilized_tip_position: 
          x: 0.0
          y: 0.0
          z: 0.0
      - 
        header: 
          seq: 0
          stamp: 
            secs: 1561406119
            nsecs: 391009862
          frame_id: "finger114"
        hand_id: 11
        id: 114
        time_visible: 0.0604289993644
        tip_position: 
          x: -3.65397381783
          y: 167.018829346
          z: -14.6364240646
        tip_velocity: 
          x: 0.0
          y: 0.0
          z: 0.0
        pointing_direction: 
          x: 0.108619011939
          y: 0.224243804812
          z: -0.968460977077
        stabilized_tip_position: 
          x: 0.0
          y: 0.0
          z: 0.0
---
header: 
  seq: 6318
  stamp: 
    secs: 0
    nsecs:         0
  frame_id: ''
hands: 
  - 
    header: 
      seq: 0
      stamp: 
        secs: 1561406119
        nsecs: 395998177
      frame_id: "hand11"
    id: 11
    time_visible: 0.0604289993644
    pose: 
      position: 
        x: -39.8223648071
        y: 157.922409058
        z: 56.9483604431
      orientation: 
        x: 0.984793214104
        y: -0.105406244544
        z: -0.110150308031
        w: 0.0832992119216
    velocity: 
      x: 811.645507812
      y: -20.3019046783
      z: -654.508361816
    sphere_radius: 54.7404747009
    sphere_center: 
      x: -45.2926063538
      y: 191.029907227
      z: 29.7294979095
    stabilized_pose: 
      position: 
        x: -52.7140426636
        y: 158.68951416
        z: 68.0752105713
      orientation: 
        x: 0.984793214104
        y: -0.105406244544
        z: -0.110150308031
        w: 0.0832992119216
    fingers: 
      - 
        header: 
          seq: 0
          stamp: 
            secs: 1561406119
            nsecs: 395998177
          frame_id: "finger110"
        hand_id: 11
        id: 110
        time_visible: 0.0604289993644
        tip_position: 
          x: -108.050186157
          y: 162.02204895
          z: 51.7336196899
        tip_velocity: 
          x: 0.0
          y: 0.0
          z: 0.0
        pointing_direction: 
          x: -0.724086999893
          y: 0.0710447207093
          z: -0.686039805412
        stabilized_tip_position: 
          x: 0.0
          y: 0.0
          z: 0.0
      - 
        header: 
          seq: 0
          stamp: 
            secs: 1561406119
            nsecs: 395998177
          frame_id: "finger111"
        hand_id: 11
        id: 111
        time_visible: 0.0604289993644
        tip_position: 
          x: -88.1090011597
          y: 182.781585693
          z: -17.7644081116
        tip_velocity: 
          x: 0.0
          y: 0.0
          z: 0.0
        pointing_direction: 
          x: -0.342800825834
          y: 0.298703610897
          z: -0.890653550625
        stabilized_tip_position: 
          x: 0.0
          y: 0.0
          z: 0.0
      - 
        header: 
          seq: 0
          stamp: 
            secs: 1561406119
            nsecs: 395998177
          frame_id: "finger112"
        hand_id: 11
        id: 112
        time_visible: 0.0604289993644
        tip_position: 
          x: -61.2022590637
          y: 185.508041382
          z: -32.9993629456
        tip_velocity: 
          x: 0.0
          y: 0.0
          z: 0.0
        pointing_direction: 
          x: -0.179950937629
          y: 0.370566219091
          z: -0.911207079887
        stabilized_tip_position: 
          x: 0.0
          y: 0.0
          z: 0.0
      - 
        header: 
          seq: 0
          stamp: 
            secs: 1561406119
            nsecs: 395998177
          frame_id: "finger113"
        hand_id: 11
        id: 113
        time_visible: 0.0604289993644
        tip_position: 
          x: -37.6083335876
          y: 181.06098938
          z: -29.6589298248
        tip_velocity: 
          x: 0.0
          y: 0.0
          z: 0.0
        pointing_direction: 
          x: -0.117493659258
          y: 0.379771053791
          z: -0.91758877039
        stabilized_tip_position: 
          x: 0.0
          y: 0.0
          z: 0.0
      - 
        header: 
          seq: 0
          stamp: 
            secs: 1561406119
            nsecs: 395998177
          frame_id: "finger114"
        hand_id: 11
        id: 114
        time_visible: 0.0604289993644
        tip_position: 
          x: -3.65397381783
          y: 167.018829346
          z: -14.6364240646
        tip_velocity: 
          x: 0.0
          y: 0.0
          z: 0.0
        pointing_direction: 
          x: 0.108619011939
          y: 0.224243804812
          z: -0.968460977077
        stabilized_tip_position: 
          x: 0.0
          y: 0.0
          z: 0.0
---
header: 
  seq: 6319
  stamp: 
    secs: 0
    nsecs:         0
  frame_id: ''
hands: 
  - 
    header: 
      seq: 0
      stamp: 
        secs: 1561406119
        nsecs: 400990890
      frame_id: "hand11"
    id: 11
    time_visible: 0.0690879970789
    pose: 
      position: 
        x: -33.14427948
        y: 156.93649292
        z: 51.2873306274
      orientation: 
        x: 0.987358787353
        y: -0.0847956312817
        z: -0.107592123731
        w: 0.0797261617201
    velocity: 
      x: 800.907104492
      y: -45.161026001
      z: -654.313171387
    sphere_radius: 55.3629875183
    sphere_center: 
      x: -37.7788734436
      y: 191.360855103
      z: 24.4133014679
    stabilized_pose: 
      position: 
        x: -46.1995315552
        y: 158.105957031
        z: 62.4867515564
      orientation: 
        x: 0.987358787353
        y: -0.0847956312817
        z: -0.107592123731
        w: 0.0797261617201
    fingers: 
      - 
        header: 
          seq: 0
          stamp: 
            secs: 1561406119
            nsecs: 400990890
          frame_id: "finger110"
        hand_id: 11
        id: 110
        time_visible: 0.0690879970789
        tip_position: 
          x: -100.856231689
          y: 160.68838501
          z: 42.8603363037
        tip_velocity: 
          x: 0.0
          y: 0.0
          z: 0.0
        pointing_direction: 
          x: -0.688826441765
          y: 0.070456944406
          z: -0.721494197845
        stabilized_tip_position: 
          x: 0.0
          y: 0.0
          z: 0.0
      - 
        header: 
          seq: 0
          stamp: 
            secs: 1561406119
            nsecs: 400990890
          frame_id: "finger111"
        hand_id: 11
        id: 111
        time_visible: 0.0690879970789
        tip_position: 
          x: -78.1760177612
          y: 181.663223267
          z: -25.4655094147
        tip_velocity: 
          x: 0.0
          y: 0.0
          z: 0.0
        pointing_direction: 
          x: -0.303898841143
          y: 0.297895848751
          z: -0.904932916164
        stabilized_tip_position: 
          x: 0.0
          y: 0.0
          z: 0.0
      - 
        header: 
          seq: 0
          stamp: 
            secs: 1561406119
            nsecs: 400990890
          frame_id: "finger112"
        hand_id: 11
        id: 112
        time_visible: 0.0690879970789
        tip_position: 
          x: -50.7749099731
          y: 184.809555054
          z: -39.3700790405
        tip_velocity: 
          x: 0.0
          y: 0.0
          z: 0.0
        pointing_direction: 
          x: -0.143226698041
          y: 0.375223070383
          z: -0.915802240372
        stabilized_tip_position: 
          x: 0.0
          y: 0.0
          z: 0.0
      - 
        header: 
          seq: 0
          stamp: 
            secs: 1561406119
            nsecs: 400990890
          frame_id: "finger113"
        hand_id: 11
        id: 113
        time_visible: 0.0690879970789
        tip_position: 
          x: -27.2182044983
          y: 180.351089478
          z: -35.066192627
        tip_velocity: 
          x: 0.0
          y: 0.0
          z: 0.0
        pointing_direction: 
          x: -0.0787914395332
          y: 0.382333278656
          z: -0.920659065247
        stabilized_tip_position: 
          x: 0.0
          y: 0.0
          z: 0.0
      - 
        header: 
          seq: 0
          stamp: 
            secs: 1561406119
            nsecs: 400990890
          frame_id: "finger114"
        hand_id: 11
        id: 114
        time_visible: 0.0690879970789
        tip_position: 
          x: 5.72734642029
          y: 166.274765015
          z: -18.6996097565
        tip_velocity: 
          x: 0.0
          y: 0.0
          z: 0.0
        pointing_direction: 
          x: 0.143360063434
          y: 0.224351465702
          z: -0.963905751705
        stabilized_tip_position: 
          x: 0.0
          y: 0.0
          z: 0.0
---
header: 
  seq: 6320
  stamp: 
    secs: 0
    nsecs:         0
  frame_id: ''
hands: 
  - 
    header: 
      seq: 0
      stamp: 
        secs: 1561406119
        nsecs: 406016806
      frame_id: "hand11"
    id: 11
    time_visible: 0.0777610018849
    pose: 
      position: 
        x: -27.0602378845
        y: 155.94291687
        z: 45.5779037476
      orientation: 
        x: 0.989008402428
        y: -0.0662154447639
        z: -0.106902073421
        w: 0.0777807270476
    velocity: 
      x: 774.455627441
      y: -63.625705719
      z: -655.373718262
    sphere_radius: 55.9718551636
    sphere_center: 
      x: -30.9326896667
      y: 191.649627686
      z: 19.1218185425
    stabilized_pose: 
      position: 
        x: -40.107383728
        y: 157.417449951
        z: 57.1045684814
      orientation: 
        x: 0.989008402428
        y: -0.0662154447639
        z: -0.106902073421
        w: 0.0777807270476
    fingers: 
      - 
        header: 
          seq: 0
          stamp: 
            secs: 1561406119
            nsecs: 406016806
          frame_id: "finger110"
        hand_id: 11
        id: 110
        time_visible: 0.0777610018849
        tip_position: 
          x: -94.2069320679
          y: 159.623352051
          z: 34.4004135132
        tip_velocity: 
          x: 0.0
          y: 0.0
          z: 0.0
        pointing_direction: 
          x: -0.65714097023
          y: 0.0731857940555
          z: -0.75020635128
        stabilized_tip_position: 
          x: 0.0
          y: 0.0
          z: 0.0
      - 
        header: 
          seq: 0
          stamp: 
            secs: 1561406119
            nsecs: 406016806
          frame_id: "finger111"
        hand_id: 11
        id: 111
        time_visible: 0.0777610018849
        tip_position: 
          x: -69.0768737793
          y: 180.862854004
          z: -32.7915153503
        tip_velocity: 
          x: 0.0
          y: 0.0
          z: 0.0
        pointing_direction: 
          x: -0.267903089523
          y: 0.300531983376
          z: -0.915373384953
        stabilized_tip_position: 
          x: 0.0
          y: 0.0
          z: 0.0
      - 
        header: 
          seq: 0
          stamp: 
            secs: 1561406119
            nsecs: 406016806
          frame_id: "finger112"
        hand_id: 11
        id: 112
        time_visible: 0.0777610018849
        tip_position: 
          x: -41.3451766968
          y: 184.286132812
          z: -45.5116958618
        tip_velocity: 
          x: 0.0
          y: 0.0
          z: 0.0
        pointing_direction: 
          x: -0.110488168895
          y: 0.381394714117
          z: -0.917785644531
        stabilized_tip_position: 
          x: 0.0
          y: 0.0
          z: 0.0
      - 
        header: 
          seq: 0
          stamp: 
            secs: 1561406119
            nsecs: 406016806
          frame_id: "finger113"
        hand_id: 11
        id: 113
        time_visible: 0.0777610018849
        tip_position: 
          x: -17.843919754
          y: 179.711715698
          z: -40.3867912292
        tip_velocity: 
          x: 0.0
          y: 0.0
          z: 0.0
        pointing_direction: 
          x: -0.0439369417727
          y: 0.386018574238
          z: -0.921444118023
        stabilized_tip_position: 
          x: 0.0
          y: 0.0
          z: 0.0
      - 
        header: 
          seq: 0
          stamp: 
            secs: 1561406119
            nsecs: 406016806
          frame_id: "finger114"
        hand_id: 11
        id: 114
        time_visible: 0.0777610018849
        tip_position: 
          x: 14.1594781876
          y: 165.500961304
          z: -22.9088821411
        tip_velocity: 
          x: 0.0
          y: 0.0
          z: 0.0
        pointing_direction: 
          x: 0.174748703837
          y: 0.22595128417
          z: -0.958336532116
        stabilized_tip_position: 
          x: 0.0
          y: 0.0
          z: 0.0
---
header: 
  seq: 6321
  stamp: 
    secs: 0
    nsecs:         0
  frame_id: ''
hands: 
  - 
    header: 
      seq: 0
      stamp: 
        secs: 1561406119
        nsecs: 411012828
      frame_id: "hand11"
    id: 11
    time_visible: 0.0777610018849
    pose: 
      position: 
        x: -27.0602378845
        y: 155.94291687
        z: 45.5779037476
      orientation: 
        x: 0.989008402428
        y: -0.0662154447639
        z: -0.106902073421
        w: 0.0777807270476
    velocity: 
